ts_name;l_name;latitude;longitude
SLFAL1;Allières / Chenau;46.48861;6.99321
GRA;Fribourg / Posieux;46.77140;7.11372
MLS;Le Moléson;46.54619;7.01775
MAS;Marsens;46.65648;7.06967
PLF;Plaffeien;46.74771;7.26626
MMROM;Romont;46.69414;6.91861